     3.04           OBSERVATION DATA    M (MIXED)           RINEX VERSION / TYPE
Alloy 6.12          Receiver Operator   20211219 010556 UTC PGM / RUN BY / DATE
TBNET                                                       MARKER NAME
2000                                                        MARKER NUMBER
GEODETIC                                                    MARKER TYPE         
OBS                 AGENCY                                  OBSERVER / AGENCY   
5827R40082          TRIMBLE ALLOY       6.12                REC # / TYPE / VERS
                    TRM115000.00    NONE                    ANT # / TYPE
 -2267217.5134  5009524.7415  3221081.2996                  APPROX POSITION XYZ
        0.0000        0.0000        0.0000                  ANTENNA: DELTA H/E/N
G   15 C1C L1C S1C C1X L1X S1X C2W L2W S2W C2X L2X S2X C5X  SYS / # / OBS TYPES
       L5X S5X                                              SYS / # / OBS TYPES
R   12 C1C L1C S1C C1P L1P S1P C2C L2C S2C C2P L2P S2P      SYS / # / OBS TYPES
E   15 C1X L1X S1X C5X L5X S5X C7X L7X S7X C8X L8X S8X C6X  SYS / # / OBS TYPES
       L6X S6X                                              SYS / # / OBS TYPES
J   18 C1C L1C S1C C1X L1X S1X C1Z L1Z S1Z C2X L2X S2X C5X  SYS / # / OBS TYPES
       L5X S5X C6L L6L S6L                                  SYS / # / OBS TYPES
C   18 C1X L1X S1X C5X L5X S5X C2I L2I S2I C7I L7I S7I C6I  SYS / # / OBS TYPES
       L6I S6I C7D L7D S7D                                  SYS / # / OBS TYPES
I    3 C5A L5A S5A                                          SYS / # / OBS TYPES
     1.000                                                  INTERVAL
  2021    12    19     1    22   33.0000000     GPS         TIME OF FIRST OBS
G L2X -0.25000                                              SYS / PHASE SHIFT   
R L1P  0.25000                                              SYS / PHASE SHIFT   
R L2C -0.25000                                              SYS / PHASE SHIFT   
J L2X  0.25000                                              SYS / PHASE SHIFT   
DBHZ                                                        SIGNAL STRENGTH UNIT
  9 R02 -4 R03  5 R04  6 R12 -1 R13 -2 R14 -7 R17  4 R18 -3 GLONASS SLOT / FRQ #
    R19  3                                                  GLONASS SLOT / FRQ #
                                                            GLONASS COD/PHS/BIS 
                                                            END OF HEADER    
> 2021 12 19  1 22 33.0000000  0 31       0.000000004000
C33  23115173.582 0 121471240.628 0        36.700    23115195.898 0  90708977.911 0        44.100    23115173.195 0 120366768.571 0        33.800                                                    23115177.336 0  97807851.908 0        42.500    23115194.035 0  93075247.930 0        41.400
C26  23166717.254 0 121741776.320 0        42.500    23166692.980 0  90911253.772 0        41.700    23166697.039 0 120634845.730 0        39.000                                                    23166687.113 0  98025818.273 0        41.600    23166691.898 0  93282635.537 0        39.600
C24  22909894.309 0 120392302.056 0        47.200    22909889.539 0  89903327.654 0        53.200    22909894.836 0 119297840.761 0        45.700                                                    22909882.781 0  96939271.405 0        50.100    22909887.168 0  92248610.208 0        50.900
C16                                                                                                  36186226.555 1 188431168.098 1        44.200    36186223.820 1 145706919.309 1        44.900    36186217.195 1 153115769.824 1        44.500
C14                                                                                                  22074691.875 1 114948687.389 1        45.700    22074684.512 1  88885613.726 1        45.300    22074679.648 1  93405247.139 1        50.600
C13                                                                                                  35818026.078 1 186513903.852 1        45.000    35818024.848 1 144224318.020 1        44.700    35818018.309 1 151557758.174 1        45.800
C09                                                                                                  37071639.109 1 193041786.016 1        40.600    37071632.730 1 149272112.291 1        45.200    37071626.281 1 156862214.003 1        43.300
C06                                                                                                  36112119.406 1 188045289.372 1        41.000    36112111.020 1 145408517.880 1        46.300    36112106.293 1 152802166.714 1        44.900
C05                                                                                                  39256400.250 1 204418383.565 1        33.000    39256393.488 1 158069232.382 1        37.400    39256389.781 1 166106626.907 1        33.800
C03                                                                                                  36687675.211 0 191042315.092 0        37.400    36687657.484 0 147726003.214 0        37.800    36687654.543 0 155237474.383 0        32.000
C02                                                                                                  37384804.516 0 194672490.772 0        35.300    37384795.633 0 150533076.443 0        39.500    37384793.977 0 158187295.774 0        34.600
C01                                                                                                  37733151.727 0 196486421.015 0        38.500    37733144.906 0 151935734.669 0        39.200    37733141.438 0 159661321.710 0        37.400
R17  21633693.430 0 115766290.792 0        29.600
R12  20723170.289 0 110699419.807 0        43.000    20723197.242 0 110699521.764 0        37.100    20723179.055 0  86099510.487 0        36.000    20723194.855 0  86099681.603 0        33.800
C38  36324910.379 1 190888641.469 1        47.000    36324907.031 1 142546720.488 1        51.100    36324911.313 1 189153286.930 1        46.000                                                    36324900.254 1 153702540.228 1        48.200    36324904.637 1 146265336.410 1        47.700
J07  36952230.766 0 194185262.699 0        41.100    36952228.863 0 194185290.707 0        44.300    36952223.980 0 194185323.551 0        47.300    36952236.223 0 151313235.256 0        52.000    36952236.375 0 145008510.623 0        53.100
J01  39515019.078 0 207652841.535 0        45.300    39515017.652 0 207652836.527 0        49.800    39515015.484 0 207652869.779 0        45.900    39515023.930 0 161807424.790 0        50.000    39515022.941 0 155065449.340 0        51.900    39515017.930 0 168549327.272 0        48.600
G15  22260900.102 0 116981498.442 0        33.600                                                    22260900.406 0  91154663.539 0        18.600    22260885.207 0  91154695.114 0        39.900
C42  23014509.922 0 120942035.224 0        48.800    23014517.156 0  90313861.215 0        51.400    23014509.422 0 119842556.151 0        44.700                                                    23014509.469 0  97381919.815 0        49.800    23014514.785 0  92669914.621 0        48.400
C58                                                                                                  33016108.039 0 171923531.155 0        38.400
I03  37332007.484 1 146498818.694 1        46.200
C60                                                                                                  37946179.156 0 197595714.673 0        43.200                                                    37946155.535 0 160562601.571 0        41.800    37946161.859 0 152793460.557 0        43.500
C59                                                                                                  37364020.703 0 194564260.797 0        38.800                                                    37363999.078 0 158099313.495 0        44.300    37364004.301 0 150449357.934 0        45.600
R02  20736448.398 1 110653679.484 1        51.800    20736447.813 1 110653686.483 1        48.400    20736452.387 1  86063983.580 1        44.800    20736451.613 1  86063977.561 1        48.500
G24  20040814.273 1 105315181.788 1        49.200                                                    20040821.391 1  82063819.337 1        56.200    20040821.836 1  82063814.341 1        51.700    20040818.832 1  78644461.328 1        53.900
E05  26312862.070 0 138274936.105 0        42.700                                                                                                    26312836.027 0 104604060.10310        30.800
E15  23995886.734 1 126099237.717 1        47.400    23995889.016 1  94165019.374 1        49.700    23995887.680 1  96621482.746 1        50.200    23995890.105 1  95393224.857 1        53.100    23995881.789 1 102353221.773 1        50.400
E13  26274205.594 0 138071972.750 0        33.100    26274216.703 0 103105645.048 0        38.200    26274214.629 0 105795356.548 0        34.700    26274216.164 0 104450516.581 0        41.000    26274203.355 0 112071302.035 0        35.800
E24  27795534.195 0 146066546.298 0        39.500                                                                                                    27795535.609 0 110498380.062 0        33.600    27795526.680 0 118560454.417 0        31.800
E08  23901451.438 1 125603197.642 1        29.000    23901490.090 1  93794412.32511        35.100                                                    23901453.258 1  95017867.22411        27.300
E03  24028267.359 1 126269461.929 1        51.200    24028269.531 1  94292100.407 1        49.400    24028267.012 1  96751756.581 1        49.900    24028270.289 1  95522013.285 1        53.100    24028262.242 1 102491523.474 1        51.900
> 2021 12 19  1 22 34.0000000  0 31       0.000000004000
C33  23114931.887 0 121469970.699 0        36.500    23114954.492 0  90708029.589 0        44.200    23114931.109 0 120365510.185 0        34.000                                                    23114935.656 0  97806829.352 0        42.500    23114952.379 0  93074274.852 0        41.300
C26  23166904.520 0 121742761.547 0        42.400    23166880.609 0  90911989.468 0        41.500    23166883.977 0 120635822.002 0        39.300                                                    23166874.563 0  98026611.577 0        41.400    23166879.383 0  93283390.452 0        39.800
C24  22909556.000 0 120390525.070 0        47.100    22909551.355 0  89902000.683 0        53.100    22909556.570 0 119296079.929 0        45.500                                                    22909544.570 0  96937840.580 0        50.000    22909549.059 0  92247248.620 0        50.700
C16                                                                                                  36186264.422 1 188431366.530 1        44.100    36186261.926 1 145707072.743 1        44.900    36186255.234 1 153115931.061 1        44.500
C14                                                                                                  22074649.250 1 114948465.115 1        45.800    22074641.594 1  88885441.848 1        45.000    22074636.984 1  93405066.517 1        50.300
C13                                                                                                  35818064.797 1 186514105.765 1        45.100    35818063.555 1 144224474.150 1        45.100    35818057.078 1 151557922.240 1        45.700
C09                                                                                                  37071628.016 1 193041728.638 1        40.800    37071621.777 1 149272067.915 1        45.100    37071615.266 1 156862167.377 1        43.400
C06                                                                                                  36112123.469 1 188045311.790 1        41.100    36112115.457 1 145408535.217 1        46.100    36112110.641 1 152802184.927 1        45.100
C05                                                                                                  39256401.117 1 204418388.133 1        33.700    39256394.355 1 158069235.905 1        37.500    39256390.738 1 166106630.616 1        34.000
C03                                                                                                  36687682.359 0 191042353.923 0        37.400    36687664.793 0 147726033.243 0        37.700    36687661.824 0 155237505.931 0        32.600
C02                                                                                                  37384806.484 0 194672499.830 0        35.200    37384797.137 0 150533083.449 0        39.800    37384795.801 0 158187303.132 0        34.700
C01                                                                                                  37733155.102 0 196486439.491 0        38.400    37733148.617 0 151935748.955 0        39.100    37733145.102 0 159661336.724 0        38.100
R17  21634358.711 0 115769835.520 0        31.300
R12  20723191.289 0 110699556.957 0        42.500    20723223.512 0 110699658.936 0        37.100    20723205.059 0  86099617.115 0        36.000    20723220.004 0  86099788.283 0        34.600
C38  36325061.145 1 190889434.021 1        47.300    36325057.914 1 142547312.325 1        51.300    36325062.094 1 189154072.268 1        45.900                                                    36325051.004 1 153703178.382 1        48.300    36325055.492 1 146265943.688 1        47.500
J07  36952230.094 0 194185260.146 0        41.500    36952228.410 0 194185288.154 0        44.300    36952223.332 0 194185320.995 0        47.000    36952235.520 0 151313233.259 0        52.100    36952235.922 0 145008508.707 0        53.400
J01  39514932.969 0 207652390.899 0        45.500    39514931.688 0 207652385.899 0        49.700    39514929.777 0 207652419.144 0        46.100    39514938.375 0 161807073.636 0        50.200    39514937.125 0 155065112.820 0        52.100    39514932.406 0 168548961.496 0        48.400
G15  22261343.305 0 116983830.786 0        29.900                                                    22261344.238 0  91156480.996 0        17.800    22261320.645 0  91156512.530 0        40.500
C42  23014645.484 0 120942748.091 0        49.000    23014652.801 0  90314393.547 0        51.700    23014645.320 0 119843262.554 0        44.700                                                    23014645.102 0  97382493.820 0        49.900    23014650.410 0  92670460.850 0        48.700
C58                                                                                                  33016481.508 0 171925476.975 0        38.300
I03  37332004.336 1 146498804.261 1        46.600
C60                                                                                                  37946188.750 0 197595763.801 0        43.000                                                    37946164.973 0 160562641.489 0        41.600    37946171.316 0 152793498.542 0        43.700
C59                                                                                                  37364018.180 0 194564248.230 0        38.900                                                    37363996.699 0 158099303.278 0        43.900    37364001.883 0 150449348.213 0        45.300
R02  20736578.617 1 110654370.470 1        51.700    20736577.184 1 110654377.477 1        48.800    20736582.105 1  86064521.017 1        44.900    20736581.090 1  86064514.990 1        48.500
G24  20040924.391 1 105315760.973 1        49.500                                                    20040931.691 1  82064270.649 1        56.100    20040931.844 1  82064265.662 1        51.400    20040929.008 1  78644893.849 1        54.100
E05  26313174.938 0 138276564.280 0        43.300                                                                                                    26313145.879 0 104605291.78010        30.600
E15  23996068.844 1 126100195.338 1        47.300    23996071.184 1  94165734.486 1        49.800    23996069.816 1  96622216.502 1        50.400    23996072.324 1  95393949.295 1        53.200    23996064.137 1 102353999.061 1        50.200
E13  26273891.734 0 138070327.886 0        32.600    26273903.820 0 103104416.707 0        37.700    26273901.973 0 105794096.161 0        35.300    26273903.168 0 104449272.229 0        41.100    26273891.004 0 112069966.910 0        35.000
E24  27795595.531 0 146066867.867 0        39.100                                                                                                    27795596.438 0 110498623.378 0        33.300    27795588.156 0 118560715.432 0        32.400
E08  23901223.688 1 125602001.006 1        29.600    23901263.457 1  93793518.801 1        34.400                                                    23901225.668 1  95016961.97011        24.600
E03  24028334.945 1 126269817.264 1        51.300    24028337.129 1  94292365.742 1        49.700    24028334.672 1  96752028.843 1        50.100    24028337.914 1  95522282.085 1        53.300    24028329.926 1 102491811.895 1        51.700
> 2021 12 19  1 22 35.0000000  0 31       0.000000004000
C33  23114690.781 0 121468700.880 0        36.200    23114712.906 0  90707081.350 0        44.300    23114689.008 0 120364251.915 0        34.300                                                    23114693.922 0  97805806.903 0        42.100    23114710.648 0  93073301.878 0        41.600
C26  23167091.824 0 121743747.309 0        41.800    23167068.316 0  90912725.604 0        42.000    23167071.023 0 120636798.805 0        39.400                                                    23167062.168 0  98027405.299 0        40.600    23167066.969 0  93284145.765 0        39.500
C24  22909217.996 0 120388748.565 0        46.800    22909213.367 0  89900674.067 0        53.200    22909218.594 0 119294319.566 0        45.700                                                    22909206.609 0  96936410.145 0        49.900    22909211.012 0  92245887.400 0        50.500
C16                                                                                                  36186302.719 1 188431565.041 1        44.100    36186300.211 1 145707226.247 1        44.800    36186293.379 1 153116092.370 1        43.600
C14                                                                                                  22074606.492 1 114948242.981 1        45.800    22074599.078 1  88885270.086 1        45.400    22074594.266 1  93404886.016 1        49.800
C13                                                                                                  35818103.773 1 186514307.850 1        45.000    35818102.520 1 144224630.411 1        45.000    35818095.844 1 151558086.448 1        45.600
C09                                                                                                  37071617.117 1 193041671.359 1        40.800    37071610.844 1 149272023.619 1        45.200    37071604.305 1 156862120.834 1        43.300
C06                                                                                                  36112127.758 1 188045334.275 1        41.100    36112119.496 1 145408552.603 1        46.300    36112114.949 1 152802203.205 1        44.700
C05                                                                                                  39256401.781 1 204418392.692 1        33.100    39256395.176 1 158069239.437 1        37.700    39256391.551 1 166106634.330 1        33.500
C03                                                                                                  36687689.883 0 191042392.774 0        37.500    36687672.301 0 147726063.281 0        38.300    36687668.992 0 155237537.498 0        32.700
C02                                                                                                  37384807.969 0 194672508.953 0        35.600    37384799.043 0 150533090.506 0        39.700    37384797.480 0 158187310.539 0        35.200
C01                                                                                                  37733158.820 0 196486458.016 0        38.100    37733152.090 0 151935763.275 0        39.100    37733148.613 0 159661351.793 0        37.700
R17  21635022.008 0 115773380.638 0        33.200
R12  20723213.805 0 110699695.038 0        42.100    20723249.590 0 110699797.003 0        37.100    20723229.113 0  86099724.544 0        35.700    20723245.250 0  86099895.705 0        33.700
C38  36325212.059 1 190890226.767 1        46.800    36325208.762 1 142547904.307 1        50.900    36325213.094 1 189154857.804 1        45.900                                                    36325201.875 1 153703816.692 1        47.900    36325206.367 1 146266551.107 1        47.500
J07  36952229.469 0 194185257.611 0        41.600    36952227.594 0 194185285.612 0        44.500    36952222.988 0 194185318.458 0        47.100    36952235.090 0 151313231.288 0        51.600    36952235.391 0 145008506.825 0        53.100
J01  39514847.594 0 207651940.203 0        45.400    39514845.996 0 207651935.197 0        49.700    39514843.898 0 207651968.447 0        45.800    39514852.551 0 161806722.443 0        49.500    39514851.301 0 155064776.258 0        52.300    39514846.383 0 168548595.667 0        48.400
G15  22261786.516 0 116986163.139 0        26.400                                                    22261787.777 0  91158298.509 0        17.400    22261754.375 0  91158330.033 0        41.200
C42  23014781.105 0 120943461.128 0        49.000    23014788.461 0  90314926.014 0        51.800    23014780.789 0 119843969.111 0        44.600                                                    23014780.793 0  97383067.955 0        49.700    23014786.055 0  92671007.204 0        48.800
C58                                                                                                  33016855.398 0 171927423.081 0        38.200
I03  37332000.359 1 146498789.869 1        46.300
C60                                                                                                  37946197.930 0 197595812.977 0        43.000                                                    37946174.410 0 160562681.451 0        41.600    37946180.777 0 152793536.572 0        44.000
C59                                                                                                  37364016.039 0 194564235.690 0        38.900                                                    37363994.301 0 158099293.084 0        43.700    37363999.422 0 150449338.513 0        45.400
R02  20736707.609 1 110655061.560 1        52.000    20736706.727 1 110655068.567 1        49.100    20736711.703 1  86065058.546 1        45.200    20736710.629 1  86065052.510 1        48.200
G24  20041035.039 1 105316340.895 1        49.300                                                    20041042.039 1  82064722.539 1        56.200    20041042.297 1  82064717.537 1        50.900    20041039.379 1  78645326.896 1        53.700
E05  26313487.203 0 138278192.473 0        43.500                                                                                                    26313455.738 0 104606523.492 0        30.600
E15  23996251.266 1 126101153.461 1        47.100    23996253.469 1  94166449.966 1        49.800    23996252.152 1  96622950.652 1        50.300    23996254.648 1  95394674.102 1        53.100    23996246.371 1 102354776.760 1        50.300
E13  26273577.391 0 138068683.402 0        32.900    26273590.648 0 103103188.701 0        38.200    26273589.242 0 105792836.126 0        35.700    26273590.219 0 104448028.205 0        41.400    26273578.652 0 112068632.116 0        34.000
E24  27795657.195 0 146067189.934 0        38.700                                                                                                    27795657.234 0 110498867.053 0        32.600    27795649.699 0 118560976.844 0        32.800
E08  23900995.547 1 125600804.572 1        28.600    23901036.316 1  93792625.288 1        34.400                                                    23900998.141 1  95016056.818 1        25.600
E03  24028402.633 1 126270172.676 1        51.300    24028404.758 1  94292631.155 1        49.800    24028402.383 1  96752301.177 1        49.800    24028405.563 1  95522550.958 1        53.100    24028397.535 1 102492100.375 1        51.100
> 2021 12 19  1 22 36.0000000  0 32       0.000000004000
C33  23114449.137 0 121467430.986 0        35.800    23114471.500 0  90706133.059 0        44.600    23114447.289 0 120362993.604 0        34.500                                                    23114452.195 0  97804784.405 0        42.300    23114468.984 0  93072328.859 0        41.300
C26  23167278.383 0 121744733.507 0        41.200    23167256.148 0  90913462.029 0        41.800    23167258.211 0 120637776.027 0        39.200                                                    23167249.859 0  98028199.373 0        40.600    23167254.539 0  93284901.420 0        39.600
C24  22908880.074 1 120386972.374 1        46.500    22908875.293 1  89899347.696 1        53.100    22908880.664 1 119292559.524 1        45.500                                                    22908868.559 1  96934979.968 1        50.000    22908873.047 1  92244526.420 1        51.000
C16                                                                                                  36186340.836 1 188431763.509 1        44.100    36186338.238 1 145707379.717 1        44.900    36186331.523 1 153116253.650 1        43.700
C14                                                                                                  22074564.156 1 114948020.847 1        45.600    22074556.410 1  88885098.323 1        45.800    22074551.602 1  93404705.511 1        50.400
C13                                                                                                  35818142.508 1 186514509.994 1        44.900    35818141.316 1 144224786.720 1        45.200    35818134.566 1 151558250.706 1        45.900
C09                                                                                                  37071605.906 1 193041614.063 1        40.500    37071599.625 1 149271979.323 1        45.200    37071593.250 1 156862074.277 1        43.800
C06                                                                                                  36112131.930 1 188045356.737 1        40.900    36112123.867 1 145408569.974 1        46.300    36112119.207 1 152802221.456 1        45.000
C05                                                                                                  39256402.656 1 204418397.184 1        33.600    39256396.027 1 158069242.909 1        37.500    39256392.398 1 166106637.976 1        34.300
C03                                                                                                  36687697.383 0 191042431.512 0        37.300    36687679.797 0 147726093.235 0        37.900    36687676.215 0 155237568.976 0        33.100
C02                                                                                                  37384809.805 0 194672517.945 0        35.500    37384800.934 0 150533097.462 0        39.200    37384799.277 0 158187317.857 0        35.200
C01                                                                                                  37733162.039 0 196486476.395 0        38.300    37733155.641 0 151935777.495 0        39.600    37733152.141 0 159661366.737 0        37.800
R17  21635685.469 0 115776925.970 0        34.300
R12  20723239.758 0 110699833.922 0        41.700    20723275.949 0 110699935.924 0        37.100    20723252.934 0  86099832.544 0        35.800    20723270.832 0  86100003.736 0        34.300
C38  36325362.875 1 190891019.548 1        46.400    36325359.738 1 142548496.329 1        51.100    36325363.625 1 189155643.387 1        45.800                                                    36325352.676 1 153704455.039 1        48.100    36325357.242 1 146267158.572 1        47.100
J07  36952228.844 0 194185254.970 0        41.400    36952227.293 0 194185282.977 0        44.300    36952222.613 0 194185315.818 0        46.900    36952234.703 0 151313229.222 0        51.600    36952234.828 0 145008504.850 0        53.200
J01  39514761.734 0 207651489.300 0        45.800    39514760.277 0 207651484.291 0        49.600    39514758.098 0 207651517.552 0        45.500    39514766.652 0 161806371.092 0        49.900    39514765.582 0 155064439.542 0        52.300    39514760.598 0 168548229.676 0        48.400
G15  22262220.297 0               0        28.600                                                    22262231.746 0               0        16.300    22262189.520 0  91160147.531 0        41.600
C42  23014916.883 0 120944174.205 0        49.200    23014924.070 0  90315458.498 0        51.800    23014916.523 0 119844675.691 0        44.600                                                    23014916.402 0  97383642.107 0        50.300    23014921.738 0  92671553.571 0        49.000
C58                                                                                                  33017229.047 0 171929369.386 0        38.100
I03  37331996.703 1 146498775.383 1        46.200
C60                                                                                                  37946207.422 0 197595862.023 0        43.000                                                    37946183.863 0 160562721.306 0        41.700    37946190.215 0 152793574.495 0        44.200
C59                                                                                                  37364013.656 0 194564223.049 0        38.700                                                    37363991.906 0 158099282.814 0        43.800    37363996.984 0 150449328.738 0        45.200
R02  20736836.984 1 110655752.619 1        51.500    20736835.922 1 110655759.626 1        49.000    20736840.922 1  86065596.029 1        46.000    20736840.152 1  86065589.994 1        48.100
G10  22957876.813 0               0        32.200                                                                                                    22957908.992 0  94009007.08410        34.000    22957901.918 0  90091775.60610        40.500
G24  20041145.227 1 105316921.353 1        49.400                                                    20041152.430 1  82065174.839 1        56.000    20041152.785 1  82065169.844 1        51.500    20041149.746 1  78645760.348 1        54.000
E05  26313798.133 0 138279820.390 0        43.500                                                                                                    26313765.469 0 104607755.05210        31.500
E15  23996433.836 1 126102111.913 1        47.500    23996435.938 1  94167165.698 1        49.600    23996434.504 1  96623685.053 1        50.400    23996437.043 1  95395399.168 1        52.900    23996428.895 1 102355554.725 1        50.500
E13  26273262.617 0 138067039.245 0        31.800    26273277.516 0 103101960.913 0        37.900    26273276.500 0 105791576.292 0        35.500    26273277.242 0 104446784.404 0        41.600    26273266.355 0 112067297.563 0        33.200
E24  27795718.875 0 146067512.284 0        38.400                                                                                                    27795717.895 0 110499110.966 0        33.600    27795711.531 0 118561238.497 0        33.600
E08  23900768.570 1 125599607.968 1        27.400    23900809.125 1  93791731.840 1        34.000                                                    23900770.551 1  95015151.59011        26.400
E03  24028470.242 1 126270528.044 1        51.400    24028472.449 1  94292896.527 1        49.700    24028469.941 1  96752573.470 1        50.300    24028473.188 1  95522819.791 1        53.500    24028465.355 1 102492388.825 1        51.300
> 2021 12 19  1 22 37.0000000  0 33       0.000000004000
C33  23114207.695 0 121466161.189 0        35.600    23114229.871 0  90705184.823 0        44.500    23114205.594 0 120361735.355 0        34.800                                                    23114210.414 0  97803761.968 0        42.800    23114227.277 0  93071355.899 0        41.300
C26  23167464.277 0 121745720.174 0        40.600    23167443.934 0  90914198.840 0        42.200    23167446.141 0 120638753.745 0        39.400                                                    23167437.527 0  98028993.840 0        41.400    23167442.332 0  93285657.441 0        39.500
C24  22908542.129 0 120385196.621 0        46.700    22908537.418 0  89898021.651 0        53.500    22908542.734 0 119290799.926 0        45.700                                                    22908530.707 0  96933550.156 0        50.200    22908535.191 0  92243165.791 0        51.000
C16                                                                                                  36186378.883 1 188431962.020 1        44.100    36186376.336 1 145707533.218 1        44.900    36186369.703 1 153116414.953 1        43.800
C14                                                                                                  22074521.359 1 114947798.850 1        45.700    22074513.980 1  88884926.665 1        46.000    22074508.934 1  93404525.124 1        50.200
C13                                                                                                  35818181.336 1 186514712.329 1        44.900    35818180.191 1 144224943.183 1        45.100    35818173.398 1 151558415.121 1        46.000
C09                                                                                                  37071595.047 1 193041556.841 1        40.900    37071588.754 1 149271935.075 1        45.000    37071582.320 1 156862027.777 1        43.700
C06                                                                                                  36112136.508 1 188045379.280 1        40.900    36112128.160 1 145408587.404 1        46.700    36112123.648 1 152802239.767 1        45.100
C05                                                                                                  39256403.664 1 204418401.652 1        33.600    39256396.816 1 158069246.365 1        37.800    39256393.227 1 166106641.608 1        34.600
C03                                                                                                  36687704.617 0 191042470.218 0        37.300    36687687.188 0 147726123.159 0        37.900    36687684.008 0 155237600.429 0        32.100
C02                                                                                                  37384811.672 0 194672526.968 0        35.500    37384802.395 0 150533104.431 0        39.500    37384801.008 0 158187325.175 0        35.200
C01                                                                                                  37733165.805 0 196486494.809 0        38.100    37733159.051 0 151935791.736 0        38.800    37733155.590 0 159661381.703 0        37.700
R17  21636348.648 0 115780471.709 0        35.200
R12  20723266.461 0 110699973.656 0        41.000    20723302.113 0 110700075.651 0        36.500    20723275.973 0  86099941.252 0        35.100    20723296.387 0  86100112.421 0        35.100
C38  36325513.734 1 190891812.494 1        46.400    36325510.555 1 142549088.460 1        51.000    36325514.641 1 189156429.118 1        45.700                                                    36325503.504 1 153705093.507 1        48.400    36325508.172 1 146267766.147 1        47.200
G18  20749402.156 0 109038816.49910        32.300    20749403.691 0 109038812.52410        35.400                                                    20749424.199 0  84965328.71710        36.100    20749406.414 0  81425077.77210        37.800
J07  36952228.469 0 194185252.309 0        41.800    36952226.707 0 194185280.330 0        44.500    36952221.945 0 194185313.156 0        46.900    36952234.324 0 151313227.167 0        52.300    36952234.305 0 145008502.872 0        53.000
J01  39514675.766 0 207651038.292 0        46.000    39514674.465 0 207651033.286 0        49.600    39514672.188 0 207651066.543 0        45.400    39514680.906 0 161806019.660 0        49.800    39514679.746 0 155064102.766 0        52.000    39514674.887 0 168547863.600 0        48.400
G15  22262649.195 0 116991109.899 0        32.900                                                    22262675.535 0  91161932.938 0        13.900    22262630.965 0  91161965.054 0        42.100
C42  23015052.539 0 120944887.403 0        49.100    23015059.691 0  90315991.084 0        52.100    23015051.875 0 119845382.415 0        44.500                                                    23015052.102 0  97384216.375 0        50.400    23015057.461 0  92672100.052 0        49.000
C58                                                                                                  33017602.813 0 171931315.983 0        37.900
I03  37331993.438 1 146498760.905 1        46.200
C60                                                                                                  37946216.938 0 197595911.060 0        43.100                                                    37946193.266 0 160562761.157 0        41.400    37946199.617 0 152793612.418 0        44.000
C59                                                                                                  37364011.086 0 194564210.394 0        38.800                                                    37363989.449 0 158099272.536 0        43.800    37363994.559 0 150449318.958 0        45.200
R02  20736966.461 1 110656443.745 1        51.300    20736965.359 1 110656450.744 1        48.900    20736970.293 1  86066133.564 1        46.100    20736969.664 1  86066127.536 1        47.800
G10  22957361.227 0 120641923.28910        31.900                                                                                                    22957390.793 0  94006884.992 0        34.700    22957383.477 0  90089741.901 0        40.800
G24  20041255.633 1 105317502.482 1        49.600                                                    20041263.137 1  82065627.666 1        56.100    20041263.332 1  82065622.671 1        51.800    20041260.391 1  78646194.311 1        53.900
E05  26314108.398 0 138281448.434 0        43.500                                                                                                    26314075.246 0 104608986.591 0        31.100    26314103.066 0 112241511.82110        38.500
E15  23996616.266 1 126103070.826 1        47.300    23996618.328 1  94167881.766 1        49.700    23996616.992 1  96624419.807 1        50.600    23996619.523 1  95396124.579 1        53.000    23996611.324 1 102356333.062 1        50.900
E13  26272947.828 0 138065395.468 0        31.600    26272964.508 0 103100733.397 0        38.300    26272963.863 0 105790316.738 0        35.900    26272964.379 0 104445540.870 0        41.600    26272954.473 0 112065963.309 0        32.300
E24  27795780.797 0 146067835.018 0        37.800                                                                                                    27795778.836 0 110499355.133 0        34.100    27795773.160 0 118561500.453 0        33.700
E08  23900540.891 1 125598411.57811        28.300    23900581.980 1  93790838.377 1        34.000                                                    23900543.074 1  95014246.52411        25.700
E03  24028537.883 1 126270883.471 1        51.700    24028540.039 1  94293161.943 1        50.000    24028537.559 1  96752845.814 1        50.500    24028540.820 1  95523088.672 1        53.800    24028532.824 1 102492677.320 1        51.100
> 2021 12 19  1 22 38.0000000  0 33       0.000000004000
C33  23113965.750 0 121464891.475 0        35.400    23113988.320 0  90704236.659 0        44.100    23113963.602 0 120360477.164 0        34.700                                                    23113968.734 0  97802739.580 0        42.600    23113985.691 0  93070382.979 0        40.900
C26  23167649.832 0 121746707.446 0        39.400    23167631.910 0  90914936.097 0        41.700    23167633.500 0 120639732.044 0        39.400                                                    23167625.422 0  98029788.787 0        41.400    23167630.113 0  93286413.924 0        39.500
C24  22908204.273 0 120383421.361 0        46.700    22908199.563 0  89896695.970 0        53.200    22908204.852 0 119289040.794 0        45.400                                                    22908192.914 0  96932120.715 0        50.100    22908197.395 0  92241805.522 0        50.900
C16                                                                                                  36186417.188 1 188432160.629 1        44.200    36186414.484 1 145707686.792 1        45.200    36186407.832 1 153116576.339 1        44.300
C14                                                                                                  22074478.773 1 114947577.020 1        45.700    22074471.230 1  88884755.127 1        46.000    22074466.348 1  93404344.863 1        50.200
C13                                                                                                  35818220.164 1 186514914.866 1        45.000    35818218.988 1 144225099.793 1        44.900    35818212.285 1 151558579.694 1        45.600
C09                                                                                                  37071584.086 1 193041499.731 1        40.400    37071577.660 1 149271890.906 1        44.900    37071571.402 1 156861981.373 1        43.700
C06                                                                                                  36112140.680 1 188045401.915 1        40.900    36112132.605 1 145408604.909 1        46.400    36112128.012 1 152802258.167 1        45.000
C05                                                                                                  39256404.438 1 204418406.161 1        33.300    39256397.633 1 158069249.852 1        37.400    39256394.090 1 166106645.275 1        32.900
C03                                                                                                  36687712.000 0 191042509.021 0        37.500    36687694.637 0 147726153.168 0        37.900    36687691.586 0 155237631.965 0        31.400
C02                                                                                                  37384813.148 0 194672535.993 0        35.400    37384804.035 0 150533111.407 0        39.400    37384802.648 0 158187332.505 0        35.200
C01                                                                                                  37733169.328 0 196486513.250 0        38.300    37733162.418 0 151935805.986 0        39.300    37733159.172 0 159661396.682 0        37.500
R17  21637010.453 0 115784017.799 0        35.600
R12  20723292.609 0 110700114.275 0        40.500    20723328.094 0 110700216.306 0        36.300    20723302.434 0  86100050.625 0        34.600    20723322.297 0  86100221.793 0        35.000
C38  36325664.754 1 190892605.636 1        46.500    36325661.531 1 142549680.740 1        50.800    36325665.484 1 189157215.053 1        45.700                                                    36325654.516 1 153705732.148 1        48.300    36325659.078 1 146268373.883 1        47.300
G18  20749718.484 0 109040476.377 0        34.000    20749722.273 0 109040472.359 0        36.900                                                    20749740.359 0  84966622.142 0        35.900    20749722.469 0  81426317.284 0        37.800
J07  36952228.281 0 194185249.708 0        41.600    36952226.184 0 194185277.718 0        44.400    36952221.371 0 194185310.559 0        46.900    36952233.723 0 151313225.129 0        51.900    36952233.836 0 145008500.923 0        53.500
J01  39514590.109 0 207650587.245 0        46.400    39514588.613 0 207650582.236 0        49.600    39514586.473 0 207650615.489 0        45.700    39514594.977 0 161805668.196 0        50.200    39514593.871 0 155063765.937 0        51.900    39514588.883 0 168547497.489 0        48.200
G15  22263071.750 0 116993442.492 0        37.100                                                    22263119.285 0  91163750.543 0        13.900    22263074.828 0  91163782.676 0        42.300
C42  23015188.230 0 120945600.787 0        48.600    23015195.477 0  90316523.801 0        52.300    23015187.781 0 119846089.307 0        44.500                                                    23015188.055 0  97384790.782 0        50.300    23015193.246 0  92672646.667 0        49.100
C58                                                                                                  33017976.477 0 171933262.859 0        37.900
I03  37331989.172 1 146498746.467 1        45.800
C60                                                                                                  37946226.313 0 197595960.146 0        42.900                                                    37946202.762 0 160562801.035 0        41.800    37946209.012 0 152793650.371 0        43.700
C59                                                                                                  37364008.563 0 194564197.776 0        38.700                                                    37363987.074 0 158099262.281 0        43.900    37363992.109 0 150449309.201 0        45.300
R02  20737095.977 0 110657134.974 0        50.700    20737095.137 0 110657141.974 0        48.900    20737098.879 0  86066671.197 0        46.600    20737099.301 0  86066665.162 0        48.200
G10  22956848.352 0 120639199.910 0        33.400                                                                                                    22956872.848 0  94004762.879 0        34.800    22956865.246 0  90087708.203 0        40.600
G24  20041366.438 0 105318084.325 0        49.500                                                    20041373.855 0  82066081.052 0        56.200    20041374.254 0  82066076.050 0        51.900    20041371.070 0  78646628.811 0        54.100
E05  26314418.117 0 138283076.385 0        43.700                                                                                                    26314385.066 0 104610218.194 0        31.100    26314413.168 0 112242833.218 0        39.900
E15  23996798.563 1 126104030.247 1        47.300    23996800.906 1  94168598.214 1        49.800    23996799.594 1  96625154.940 1        50.700    23996802.102 1  95396850.370 1        53.100    23996794.059 1 102357111.811 1        50.700
E13  26272632.938 0 138063752.145 0        29.500    26272651.617 0 103099506.249 0        38.300    26272650.734 0 105789057.533 0        36.400    26272651.582 0 104444297.700 0        41.800    26272642.645 0 112064629.430 0        31.300
E24  27795842.609 0 146068158.234 0        36.800                                                                                                    27795840.125 0 110499599.649 0        34.200    27795834.703 0 118561762.791 0        34.200
E08  23900312.758 1 125597215.27111        28.300    23900354.961 1  93789945.018 1        33.500                                                    23900315.543 1  95013341.55511        25.600
E03  24028605.563 1 126271239.008 1        51.700    24028607.727 1  94293427.445 1        50.000    24028605.207 1  96753118.241 1        50.600    24028608.469 1  95523357.634 1        53.900    24028600.496 1 102492965.906 1        51.100
> 2021 12 19  1 22 39.0000000  0 33       0.000000004000
C33  23113723.941 0 121463621.803 0        35.900    23113746.844 0  90703288.526 0        44.100    23113720.813 0 120359219.047 0        35.400                                                    23113726.992 0  97801717.254 0        42.600    23113744.066 0  93069410.115 0        41.200
C26  23167833.277 0 121747695.194 0        39.400    23167819.832 0  90915673.728 0        41.600    23167821.273 0 120640710.867 0        39.200                                                    23167813.309 0  98030584.156 0        41.400    23167818.035 0  93287170.808 0        39.300
C24  22907866.270 0 120381646.523 0        46.700    22907861.766 0  89895370.607 0        53.000    22907867.063 0 119287282.096 0        45.500                                                    22907855.188 0  96930691.629 0        50.100    22907859.695 0  92240445.588 0        50.500
C16                                                                                                  36186455.328 1 188432359.282 1        44.200    36186452.719 1 145707840.406 1        45.100    36186445.965 1 153116737.760 1        44.300
C14                                                                                                  22074436.023 1 114947355.294 1        45.600    22074428.789 1  88884583.680 1        46.000    22074423.680 1  93404164.699 1        50.200
C13                                                                                                  35818259.008 1 186515117.568 1        45.000    35818258.105 1 144225256.535 1        44.700    35818251.266 1 151558744.407 1        45.400
C09                                                                                                  37071573.094 1 193041442.706 1        40.600    37071566.730 1 149271846.816 1        45.100    37071560.406 1 156861935.038 1        43.800
C06                                                                                                  36112145.117 1 188045424.615 1        41.000    36112136.898 1 145408622.460 1        46.400    36112132.320 1 152802276.610 1        44.900
C05                                                                                                  39256405.461 1 204418410.689 1        33.100    39256398.426 1 158069253.355 1        37.500    39256394.965 1 166106648.948 1        34.100
C03                                                                                                  36687719.852 0 191042547.770 0        37.400    36687702.309 0 147726183.131 0        37.600    36687699.195 0 155237663.451 0        30.500
C02                                                                                                  37384815.039 0 194672545.025 0        35.500    37384805.906 0 150533118.400 0        39.000    37384804.402 0 158187339.842 0        35.700
C01                                                                                                  37733172.875 0 196486531.658 0        38.600    37733165.988 0 151935820.228 0        39.200    37733162.746 0 159661411.643 0        38.000
R17  21637670.516 0 115787564.219 0        35.800
R12  20723319.898 0 110700255.737 0        40.200    20723354.387 0 110700357.753 0        36.200    20723329.934 0  86100160.665 0        33.600    20723348.570 0  86100331.833 0        34.800
C38  36325815.754 1 190893398.937 1        46.400    36325812.520 1 142550273.140 1        51.000    36325816.469 1 189158001.146 1        45.700                                                    36325805.527 1 153706370.908 1        48.100    36325810.047 1 146268981.735 1        47.500
G18  20750034.695 0 109042136.824 0        35.600    20750039.840 0 109042132.805 0        37.600                                                    20750055.875 0  84967916.016 0        35.900    20750038.434 0  81427557.209 0        38.100
J07  36952227.297 0 194185247.102 0        41.600    36952225.738 0 194185275.107 0        44.400    36952220.891 0 194185307.949 0        46.800    36952233.207 0 151313223.098 0        51.800    36952233.316 0 145008498.972 0        53.100
J01  39514504.219 0 207650136.093 0        46.500    39514502.629 0 207650131.086 0        49.700    39514500.621 0 207650164.338 0        46.000    39514509.543 0 161805316.649 0        49.900    39514508.047 0 155063429.044 0        52.000    39514503.184 0 168547131.293 0        48.200
G15  22263513.609 0 116995775.177 0        39.000                                                    22263562.473 0  91165568.104 0        13.900    22263518.270 0  91165600.374 0        42.500
C42  23015323.867 0 120946314.293 0        48.700    23015331.238 0  90317056.616 0        52.500    23015323.680 0 119846796.332 0        44.500                                                    23015323.742 0  97385365.295 0        50.000    23015329.020 0  92673193.376 0        49.200
C58                                                                                                  33018350.508 0 171935210.050 0        37.800
I03  37331985.719 1 146498732.018 1        46.100
C60                                                                                                  37946235.750 0 197596009.224 0        42.900                                                    37946212.219 0 160562840.914 0        41.300    37946218.398 0 152793688.325 0        43.800
C59                                                                                                  37364006.344 0 194564185.176 0        38.800                                                    37363984.672 0 158099252.044 0        44.300    37363989.695 0 150449299.457 0        45.200
R02  20737226.039 0 110657826.286 0        50.300    20737224.602 0 110657833.285 0        48.900    20737229.539 0  86067208.878 0        46.300    20737228.730 0  86067202.843 0        48.000
G10  22956334.445 0 120636476.585 0        33.700                                                                                                    22956355.051 0  94002640.815 0        35.100    22956346.910 0  90085674.566 0        40.800
G24  20041477.234 0 105318666.824 0        49.400                                                    20041484.762 0  82066534.951 0        56.000    20041485.074 0  82066529.949 0        52.000    20041481.863 0  78647063.794 0        53.700
E05  26314727.656 0 138284704.359 0        43.500                                                                                                    26314694.910 0 104611449.76310        30.800    26314723.219 0 112244154.633 0        40.900
E15  23996981.227 1 126104990.109 1        47.400    23996983.570 1  94169314.998 1        50.300    23996982.125 1  96625890.421 1        50.200    23996984.754 1  95397576.505 1        53.000    23996976.703 1 102357890.927 1        50.500
E13  26272318.391 0 138062109.162 0        29.100    26272338.801 0 103098279.318 0        38.000    26272337.633 0 105787798.629 0        36.900    26272338.824 0 104443054.768 0        41.900    26272330.820 0 112063295.822 0        30.200
E24  27795904.461 0 146068481.949 0        36.000                                                                                                    27795901.750 0 110499844.527 0        34.000    27795896.512 0 118562025.533 0        34.800
E08  23900084.773 1 125596018.962 1        29.000    23900127.434 1  93789051.745 1        33.200                                                    23900088.070 1  95012436.58411        25.000
E03  24028673.320 1 126271594.591 1        51.700    24028675.406 1  94293692.973 1        49.700    24028673.004 1  96753390.701 1        50.500    24028676.156 1  95523626.630 1        53.500    24028668.023 1 102493254.531 1        51.300
> 2021 12 19  1 22 40.0000000  0 33       0.000000004000
C33  23113482.266 0 121462352.256 0        34.800    23113505.293 0  90702340.474 0        44.100    23113478.648 0 120357961.019 0        35.400                                                    23113485.371 0  97800694.997 0        42.400    23113502.449 0  93068437.327 0        41.500
C26  23168013.043 0 121748683.477 0        40.000    23168007.766 0  90916411.764 0        41.600    23168009.391 0 120641690.190 0        39.100                                                    23168001.359 0  98031379.932 0        41.300    23168006.020 0  93287928.081 0        39.700
C24  22907528.898 0 120379872.139 0        46.600    22907524.176 0  89894045.582 0        52.900    22907529.406 0 119285523.843 0        45.500                                                    22907517.594 0  96929262.908 0        50.000    22907522.059 0  92239085.993 0        50.300
C16                                                                                                  36186493.523 1 188432557.989 1        44.200    36186491.004 1 145707994.064 1        45.200    36186484.176 1 153116899.230 1        44.300
C14                                                                                                  22074393.477 1 114947133.685 1        45.700    22074386.109 1  88884412.321 1        46.400    22074381.090 1  93403984.624 1        50.700
C13                                                                                                  35818298.117 1 186515320.459 1        45.000    35818296.953 1 144225413.418 1        44.900    35818290.164 1 151558909.272 1        45.700
C09                                                                                                  37071562.391 1 193041385.770 1        40.600    37071555.867 1 149271802.787 1        44.700    37071549.531 1 156861888.769 1        43.600
C06                                                                                                  36112149.406 1 188045447.403 1        41.300    36112141.168 1 145408640.084 1        46.600    36112136.637 1 152802295.123 1        45.000
C05                                                                                                  39256406.070 1 204418415.238 1        33.300    39256399.422 1 158069256.876 1        37.700    39256395.793 1 166106652.649 1        33.900
C03                                                                                                  36687727.266 0 191042586.543 0        37.400    36687709.531 0 147726213.116 0        38.300    36687706.680 0 155237694.958 0        31.800
C02                                                                                                  37384817.031 0 194672554.083 0        35.200    37384807.391 0 150533125.397 0        39.600    37384806.223 0 158187347.207 0        35.400
C01                                                                                                  37733176.414 0 196486550.114 0        38.300    37733169.551 0 151935834.496 0        39.400    37733166.313 0 159661426.639 0        37.500
R17  21638338.055 0 115791111.022 0        36.000
R12  20723348.508 0 110700398.104 0        39.900    20723381.094 0 110700500.165 0        36.400    20723356.055 0  86100271.417 0        32.800    20723375.004 0  86100442.571 0        34.600
C38  36325966.777 1 190894192.400 1        46.500    36325963.414 1 142550865.660 1        51.100    36325967.359 1 189158787.395 1        45.800                                                    36325956.504 1 153707009.801 1        48.100    36325961.051 1 146269589.712 1        47.300
G18  20750351.805 0 109043797.870 0        36.400    20750356.699 0 109043793.836 0        38.600                                                    20750371.992 0  84969210.373 0        36.000    20750354.824 0  81428797.584 0        38.500
J07  36952227.031 0 194185244.498 0        40.800    36952225.246 0 194185272.498 0        44.500    36952220.395 0 194185305.352 0        46.900    36952232.762 0 151313221.068 0        52.000    36952232.926 0 145008497.029 0        53.000
J01  39514418.578 0 207649684.856 0        45.900    39514416.855 0 207649679.856 0        49.700    39514414.898 0 207649713.107 0        45.700    39514423.605 0 161804965.039 0        50.000    39514422.125 0 155063092.074 0        52.300    39514417.234 0 168546765.030 0        48.600
G15  22263958.805 0 116998107.965 0        41.300                                                    22264005.500 0  91167385.968 0        13.900    22263962.410 0  91167418.113 0        42.400
C42  23015459.793 0 120947027.953 0        48.500    23015467.047 0  90317589.540 0        52.100    23015459.555 0 119847503.497 0        44.900                                                    23015459.555 0  97385939.924 0        50.300    23015464.891 0  92673740.205 0        48.800
C58                                                                                                  33018724.672 0 171937157.513 0        37.700
I03  37331982.117 1 146498717.574 1        46.200
